{
  "airports": [
    { "name": "Gatwick Airport", "slug": "gatwick-airport", "lat": 51.1537, "lng": -0.1821, "postcode": "RH6 0NP" },
    { "name": "Heathrow Airport", "slug": "heathrow-airport", "lat": 51.4700, "lng": -0.4543, "postcode": "TW6 1QG" },
    { "name": "Stansted Airport", "slug": "stansted-airport", "lat": 51.8860, "lng": 0.2389, "postcode": "CM24 1QW" },
    { "name": "Luton Airport", "slug": "luton-airport", "lat": 51.8747, "lng": -0.3683, "postcode": "LU2 9LY" },
    { "name": "London City Airport", "slug": "london-city-airport", "lat": 51.5048, "lng": 0.0495, "postcode": "E16 2PX" }
  ],
  "londonAreas": [
    { "name": "Westminster", "slug": "westminster", "lat": 51.4975, "lng": -0.1357, "postcode": "SW1A" },
    { "name": "Kensington", "slug": "kensington", "lat": 51.4991, "lng": -0.1938, "postcode": "W8" },
    { "name": "Chelsea", "slug": "chelsea", "lat": 51.4875, "lng": -0.1687, "postcode": "SW3" },
    { "name": "Camden", "slug": "camden", "lat": 51.5290, "lng": -0.1255, "postcode": "NW1" },
    { "name": "Islington", "slug": "islington", "lat": 51.5416, "lng": -0.1022, "postcode": "N1" },
    { "name": "Hackney", "slug": "hackney", "lat": 51.5450, "lng": -0.0553, "postcode": "E8" },
    { "name": "Tower Hamlets", "slug": "tower-hamlets", "lat": 51.5203, "lng": -0.0293, "postcode": "E1" },
    { "name": "Greenwich", "slug": "greenwich", "lat": 51.4834, "lng": 0.0064, "postcode": "SE10" },
    { "name": "Lewisham", "slug": "lewisham", "lat": 51.4459, "lng": -0.0186, "postcode": "SE13" },
    { "name": "Southwark", "slug": "southwark", "lat": 51.5035, "lng": -0.0804, "postcode": "SE1" },
    { "name": "Lambeth", "slug": "lambeth", "lat": 51.4607, "lng": -0.1163, "postcode": "SE11" },
    { "name": "Wandsworth", "slug": "wandsworth", "lat": 51.4571, "lng": -0.1819, "postcode": "SW18" },
    { "name": "Hammersmith", "slug": "hammersmith", "lat": 51.4927, "lng": -0.2339, "postcode": "W6" },
    { "name": "Fulham", "slug": "fulham", "lat": 51.4821, "lng": -0.1947, "postcode": "SW6" },
    { "name": "Richmond", "slug": "richmond", "lat": 51.4613, "lng": -0.3037, "postcode": "TW9" },
    { "name": "Kingston", "slug": "kingston", "lat": 51.4123, "lng": -0.3007, "postcode": "KT1" },
    { "name": "Wimbledon", "slug": "wimbledon", "lat": 51.4214, "lng": -0.2064, "postcode": "SW19" },
    { "name": "Croydon", "slug": "croydon", "lat": 51.3762, "lng": -0.0982, "postcode": "CR0" },
    { "name": "Bromley", "slug": "bromley", "lat": 51.4039, "lng": 0.0198, "postcode": "BR1" },
    { "name": "Bexley", "slug": "bexley", "lat": 51.4415, "lng": 0.1506, "postcode": "DA5" },
    { "name": "Barking", "slug": "barking", "lat": 51.5396, "lng": 0.0806, "postcode": "IG11" },
    { "name": "Redbridge", "slug": "redbridge", "lat": 51.5590, "lng": 0.0741, "postcode": "IG1" },
    { "name": "Enfield", "slug": "enfield", "lat": 51.6523, "lng": -0.0807, "postcode": "EN1" },
    { "name": "Barnet", "slug": "barnet", "lat": 51.6252, "lng": -0.1517, "postcode": "EN5" },
    { "name": "Harrow", "slug": "harrow", "lat": 51.5836, "lng": -0.3464, "postcode": "HA1" },
    { "name": "Ealing", "slug": "ealing", "lat": 51.5130, "lng": -0.3089, "postcode": "W5" },
    { "name": "Hounslow", "slug": "hounslow", "lat": 51.4678, "lng": -0.3714, "postcode": "TW3" },
    { "name": "Sutton", "slug": "sutton", "lat": 51.3618, "lng": -0.1945, "postcode": "SM1" },
    { "name": "Merton", "slug": "merton", "lat": 51.4098, "lng": -0.1949, "postcode": "SW19" },
    { "name": "Canary Wharf", "slug": "canary-wharf", "lat": 51.5054, "lng": -0.0235, "postcode": "E14" },
    { "name": "Shoreditch", "slug": "shoreditch", "lat": 51.5244, "lng": -0.0784, "postcode": "EC2A" },
    { "name": "Stratford", "slug": "stratford", "lat": 51.5416, "lng": -0.0037, "postcode": "E15" }
  ],
  "majorCities": [
    { "name": "Brighton", "slug": "brighton", "lat": 50.8225, "lng": -0.1372, "postcode": "BN1" },
    { "name": "Southampton", "slug": "southampton", "lat": 50.9097, "lng": -1.4044, "postcode": "SO14" },
    { "name": "Portsmouth", "slug": "portsmouth", "lat": 50.8198, "lng": -1.0880, "postcode": "PO1" },
    { "name": "Oxford", "slug": "oxford", "lat": 51.7520, "lng": -1.2577, "postcode": "OX1" },
    { "name": "Cambridge", "slug": "cambridge", "lat": 52.2053, "lng": 0.1218, "postcode": "CB2" },
    { "name": "Reading", "slug": "reading", "lat": 51.4543, "lng": -0.9781, "postcode": "RG1" },
    { "name": "Guildford", "slug": "guildford", "lat": 51.2362, "lng": -0.5704, "postcode": "GU1" },
    { "name": "Crawley", "slug": "crawley", "lat": 51.1077, "lng": -0.1869, "postcode": "RH10" },
    { "name": "Horsham", "slug": "horsham", "lat": 51.0629, "lng": -0.3258, "postcode": "RH12" },
    { "name": "Worthing", "slug": "worthing", "lat": 50.8148, "lng": -0.3715, "postcode": "BN11" },
    { "name": "Eastbourne", "slug": "eastbourne", "lat": 50.7684, "lng": 0.2903, "postcode": "BN21" },
    { "name": "Hastings", "slug": "hastings", "lat": 50.8543, "lng": 0.5736, "postcode": "TN34" },
    { "name": "Canterbury", "slug": "canterbury", "lat": 51.2787, "lng": 1.0789, "postcode": "CT1" },
    { "name": "Maidstone", "slug": "maidstone", "lat": 51.2704, "lng": 0.5227, "postcode": "ME14" },
    { "name": "Tunbridge Wells", "slug": "tunbridge-wells", "lat": 51.1324, "lng": 0.2636, "postcode": "TN1" },
    { "name": "Ashford", "slug": "ashford", "lat": 51.1465, "lng": 0.8750, "postcode": "TN23" },
    { "name": "Dover", "slug": "dover", "lat": 51.1279, "lng": 1.3134, "postcode": "CT16" },
    { "name": "Folkestone", "slug": "folkestone", "lat": 51.0814, "lng": 1.1680, "postcode": "CT20" },
    { "name": "Chichester", "slug": "chichester", "lat": 50.8367, "lng": -0.7793, "postcode": "PO19" },
    { "name": "Winchester", "slug": "winchester", "lat": 51.0632, "lng": -1.3080, "postcode": "SO23" },
    { "name": "Basingstoke", "slug": "basingstoke", "lat": 51.2664, "lng": -1.0871, "postcode": "RG21" },
    { "name": "Slough", "slug": "slough", "lat": 51.5105, "lng": -0.5950, "postcode": "SL1" },
    { "name": "High Wycombe", "slug": "high-wycombe", "lat": 51.6287, "lng": -0.7482, "postcode": "HP11" },
    { "name": "Bracknell", "slug": "bracknell", "lat": 51.4155, "lng": -0.7535, "postcode": "RG12" },
    { "name": "Maidenhead", "slug": "maidenhead", "lat": 51.5217, "lng": -0.7180, "postcode": "SL6" },
    { "name": "Windsor", "slug": "windsor", "lat": 51.4832, "lng": -0.6108, "postcode": "SL4" },
    { "name": "Woking", "slug": "woking", "lat": 51.3168, "lng": -0.5591, "postcode": "GU21" },
    { "name": "Epsom", "slug": "epsom", "lat": 51.3360, "lng": -0.2688, "postcode": "KT18" },
    { "name": "Reigate", "slug": "reigate", "lat": 51.2374, "lng": -0.2046, "postcode": "RH2" },
    { "name": "Redhill", "slug": "redhill", "lat": 51.2398, "lng": -0.1710, "postcode": "RH1" }
  ]
}

